[
  {
    "code": 39,
    "name": "KOH-I-NOOR HARDTMUTH Trade, a.s.",
    "street": "Palackého 201",
    "city": "Napajedla",
    "zipcode": "763 61",
    "phone": "730 529 673",
    "inSunday": "",
    "inMonday": "07:30-17:00",
    "inTuesday": "07:30-17:00",
    "inWednesday": "07:30-17:00",
    "inThursday": "07:30-17:00",
    "inFriday": "07:30-17:00",
    "inSaturday": "08:00-11:00",
    "inSpecial": "",
    "lat": 49.1746011,
    "lng": 17.515125200000057
  },
  {
    "code": 81,
    "name": "KOH-I-NOOR HARDTMUTH Trade, a.s.",
    "street": "tř. Masarykova 116",
    "city": "Veselí nad Moravou",
    "zipcode": "698 01",
    "phone": "739 329 731",
    "inSunday": "",
    "inMonday": "07:30-17:00",
    "inTuesday": "07:30-17:00",
    "inWednesday": "07:30-17:00",
    "inThursday": "07:30-17:00",
    "inFriday": "07:30-17:00",
    "inSaturday": "08:00-11:00",
    "inSpecial": "",
    "lat": 48.951983,
    "lng": 17.38040090000004
  },
  {
    "code": 19,
    "name": "KOH-I-NOOR HARDTMUTH Trade, a.s.",
    "street": "Velkomoravská 378/1",
    "city": "Hodonín",
    "zipcode": "695 01",
    "phone": "734 357 115",
    "inSunday": "",
    "inMonday": "09:00-18:00",
    "inTuesday": "09:00-18:00",
    "inWednesday": "09:00-18:00",
    "inThursday": "09:00-18:00",
    "inFriday": "09:00-18:00",
    "inSaturday": "09:00-12:00",
    "inSpecial": "",
    "lat": 48.8512431,
    "lng": 17.126553599999966
  },
  {
    "code": 22,
    "name": "KOH-I-NOOR HARDTMUTH Trade, a.s.",
    "street": "Komenského 485/2",
    "city": "Jablonec nad Nisou",
    "zipcode": "466 01",
    "phone": "730 529 670",
    "inSunday": "",
    "inMonday": "07:30-17:30",
    "inTuesday": "07:30-17:30",
    "inWednesday": "07:30-17:30",
    "inThursday": "07:30-17:30",
    "inFriday": "07:30-17:30",
    "inSaturday": "09:00-11:30",
    "inSpecial": "",
    "lat": 50.7240479,
    "lng": 15.170430200000055
  },
  {
    "code": 88,
    "name": "KOH-I-NOOR HARDTMUTH Trade, a.s.",
    "street": "Velká Michalská 184/1",
    "city": "Znojmo",
    "zipcode": "669 02",
    "phone": "731 627 830",
    "inSunday": "",
    "inMonday": "07:30-17:00",
    "inTuesday": "07:30-17:00",
    "inWednesday": "07:30-17:00",
    "inThursday": "07:30-17:00",
    "inFriday": "07:30-17:00",
    "inSaturday": "08:00-11:00",
    "inSpecial": "",
    "lat": 48.8580142,
    "lng": 16.04815050000002
  },
  {
    "code": 77,
    "name": "KOH-I-NOOR HARDTMUTH Trade, a.s.",
    "street": "Karlovo nám. 48/37",
    "city": "Třebíč",
    "zipcode": "674 01",
    "phone": "739 329 694",
    "inSunday": "",
    "inMonday": "07:30-17:30",
    "inTuesday": "07:30-17:30",
    "inWednesday": "07:30-17:30",
    "inThursday": "07:30-17:30",
    "inFriday": "07:30-17:30",
    "inSaturday": "09:00-12:00",
    "inSpecial": "",
    "lat": 49.21554940000001,
    "lng": 15.881826300000057
  },
  {
    "code": 12,
    "name": "KOH-I-NOOR HARDTMUTH Trade, a.s.",
    "street": "Čapkova 1223/9",
    "city": "Český Těšín",
    "zipcode": "737 01",
    "phone": "731 422 388",
    "inSunday": "",
    "inMonday": "07:30-17:00",
    "inTuesday": "07:30-17:00",
    "inWednesday": "07:30-17:00",
    "inThursday": "07:30-17:00",
    "inFriday": "07:30-17:00",
    "inSaturday": "09:00-12:00",
    "inSpecial": "",
    "lat": 49.744751,
    "lng": 18.624466100000063
  },
  {
    "code": 69,
    "name": "KOH-I-NOOR HARDTMUTH Trade, a.s.",
    "street": "Staré náměstí 58",
    "city": "Rychnov nad Kněžnou",
    "zipcode": "516 01",
    "phone": "731 422 394",
    "inSunday": "",
    "inMonday": "08:00-17:00",
    "inTuesday": "08:00-17:00",
    "inWednesday": "08:00-17:00",
    "inThursday": "08:00-17:00",
    "inFriday": "08:00-17:00",
    "inSaturday": "08:00-11:30",
    "inSpecial": "",
    "lat": 50.1626316,
    "lng": 16.27384870000003
  },
  {
    "code": 63,
    "name": "KOH-I-NOOR HARDTMUTH Trade, a.s.",
    "street": "Slezská 126/6",
    "city": "Praha",
    "zipcode": "120 00",
    "phone": "731 422 447",
    "inSunday": "",
    "inMonday": "09:00-18:00",
    "inTuesday": "09:00-18:00",
    "inWednesday": "09:00-18:00",
    "inThursday": "09:00-18:00",
    "inFriday": "09:00-18:00",
    "inSaturday": "09:00-12:00",
    "inSpecial": "",
    "lat": 50.07594650000001,
    "lng": 14.439575300000001
  },
  {
    "code": 41,
    "name": "KOH-I-NOOR HARDTMUTH Trade, a.s.",
    "street": "Denisova 28",
    "city": "Olomouc",
    "zipcode": "779 00",
    "phone": "731 627 866",
    "inSunday": "",
    "inMonday": "08:00-17:00",
    "inTuesday": "08:00-17:00",
    "inWednesday": "08:00-17:00",
    "inThursday": "08:00-17:00",
    "inFriday": "08:00-17:00",
    "inSaturday": "08:00-12:00",
    "inSpecial": "",
    "lat": 49.5956197,
    "lng": 17.25632810000002
  },
  {
    "code": 17,
    "name": "KOH-I-NOOR HARDTMUTH Trade, a.s.",
    "street": "tř. T. G. Masaryka 496/1",
    "city": "Frýdek-Místek",
    "zipcode": "738 01",
    "phone": "739 329 699",
    "inSunday": "",
    "inMonday": "07:30-17:00",
    "inTuesday": "07:30-17:00",
    "inWednesday": "07:30-17:00",
    "inThursday": "07:30-17:00",
    "inFriday": "07:30-17:00",
    "inSaturday": "09:00-12:00",
    "inSpecial": "",
    "lat": 49.6845684,
    "lng": 18.352865500000007
  },
  {
    "code": 65,
    "name": "KOH-I-NOOR HARDTMUTH Trade, a.s.",
    "street": "Wilsonova 37/2a",
    "city": "Přerov",
    "zipcode": "750 02",
    "phone": "731 627 850",
    "inSunday": "",
    "inMonday": "07:30-18:00",
    "inTuesday": "07:30-18:00",
    "inWednesday": "07:30-18:00",
    "inThursday": "07:30-18:00",
    "inFriday": "07:30-18:00",
    "inSaturday": "08:30-12:00",
    "inSpecial": "",
    "lat": 49.4545353,
    "lng": 17.450159100000064
  },
  {
    "code": 61,
    "name": "KOH-I-NOOR HARDTMUTH Trade, a.s.",
    "street": "Nuselská 78/26",
    "city": "Praha",
    "zipcode": "140 00",
    "phone": "731 422 331",
    "inSunday": "",
    "inMonday": "09:30-18:00",
    "inTuesday": "09:30-18:00",
    "inWednesday": "09:30-18:00",
    "inThursday": "09:30-18:00",
    "inFriday": "09:30-18:00",
    "inSaturday": "",
    "inSpecial": "",
    "lat": 50.0625753,
    "lng": 14.44385669999997
  },
  {
    "code": 72,
    "name": "KOH-I-NOOR HARDTMUTH Trade, a.s.",
    "street": "Palackého náměstí 114",
    "city": "Strakonice",
    "zipcode": "386 01",
    "phone": "730 521 923",
    "inSunday": "",
    "inMonday": "08:30-17:00",
    "inTuesday": "08:30-17:00",
    "inWednesday": "08:30-17:00",
    "inThursday": "08:30-17:00",
    "inFriday": "08:30-17:00",
    "inSaturday": "09:00-11:30",
    "inSpecial": "",
    "lat": 49.2598593,
    "lng": 13.903241699999967
  },
  {
    "code": 20,
    "name": "KOH-I-NOOR HARDTMUTH Trade, a.s.",
    "street": "Mostecká 279/1",
    "city": "Hradec Králové",
    "zipcode": "500 03",
    "phone": "730 521 921",
    "inSunday": "",
    "inMonday": "07:30-18:00",
    "inTuesday": "07:30-18:00",
    "inWednesday": "07:30-18:00",
    "inThursday": "07:30-18:00",
    "inFriday": "07:30-18:00",
    "inSaturday": "08:00-12:00",
    "inSpecial": "",
    "lat": 50.210003,
    "lng": 15.82903429999999
  },
  {
    "code": 47,
    "name": "KOH-I-NOOR HARDTMUTH Trade, a.s.",
    "street": "Tylova 727",
    "city": "Otrokovice",
    "zipcode": "765 02",
    "phone": "731 627 871",
    "inSunday": "",
    "inMonday": "07:30-17:00",
    "inTuesday": "07:30-17:00",
    "inWednesday": "07:30-17:00",
    "inThursday": "07:30-17:00",
    "inFriday": "07:30-17:00",
    "inSaturday": "08:00-11:00",
    "inSpecial": "",
    "lat": 49.21492,
    "lng": 17.512485999999967
  },
  {
    "code": 42,
    "name": "KOH-I-NOOR HARDTMUTH Trade, a.s.",
    "street": "Horní náměstí 371/1",
    "city": "Olomouc",
    "zipcode": "779 00",
    "phone": "736 513 798",
    "inSunday": "",
    "inMonday": "08:00-18:00",
    "inTuesday": "08:00-18:00",
    "inWednesday": "08:00-18:00",
    "inThursday": "08:00-18:00",
    "inFriday": "08:00-18:00",
    "inSaturday": "09:00-12:00",
    "inSpecial": "",
    "lat": 49.5942747,
    "lng": 17.249905799999965
  },
  {
    "code": 7,
    "name": "KOH-I-NOOR HARDTMUTH Trade, a.s.",
    "street": "Náměstí Míru 83/25",
    "city": "Bruntál",
    "zipcode": "792 01",
    "phone": "731 422 335",
    "inSunday": "",
    "inMonday": "07:30-17:00",
    "inTuesday": "07:30-17:00",
    "inWednesday": "07:30-17:00",
    "inThursday": "07:30-17:00",
    "inFriday": "07:30-17:00",
    "inSaturday": "09:00-12:00",
    "inSpecial": "",
    "lat": 49.9888938,
    "lng": 17.46561040000006
  },
  {
    "code": 67,
    "name": "KOH-I-NOOR HARDTMUTH Trade, a.s.",
    "street": "Hailova 118",
    "city": "Příbram",
    "zipcode": "261 01",
    "phone": "731 627 862",
    "inSunday": "",
    "inMonday": "07:30-18:00",
    "inTuesday": "07:30-18:00",
    "inWednesday": "07:30-18:00",
    "inThursday": "07:30-18:00",
    "inFriday": "07:30-18:00",
    "inSaturday": "08:00-12:00",
    "inSpecial": "",
    "lat": 49.68895300000001,
    "lng": 14.010002999999983
  },
  {
    "code": 26,
    "name": "KOH-I-NOOR HARDTMUTH Trade, a.s.",
    "street": "nám. Míru 161",
    "city": "Jindřichův Hradec",
    "zipcode": "377 01",
    "phone": "731 627 864",
    "inSunday": "",
    "inMonday": "08:00-17:00",
    "inTuesday": "08:00-17:00",
    "inWednesday": "08:00-17:00",
    "inThursday": "08:00-17:00",
    "inFriday": "08:00-17:00",
    "inSaturday": "09:00-12:00",
    "inSpecial": "",
    "lat": 49.1436625,
    "lng": 15.003762999999935
  },
  {
    "code": 53,
    "name": "KOH-I-NOOR HARDTMUTH Trade, a.s.",
    "street": "Jiřího náměstí 35/19",
    "city": "Poděbrady",
    "zipcode": "290 01",
    "phone": "731 422 336",
    "inSunday": "",
    "inMonday": "07:30-17:30",
    "inTuesday": "07:30-17:30",
    "inWednesday": "07:30-17:30",
    "inThursday": "07:30-17:30",
    "inFriday": "07:30-17:30",
    "inSaturday": "08:00-12:00",
    "inSpecial": "",
    "lat": 50.1430875,
    "lng": 15.117798600000015
  },
  {
    "code": 87,
    "name": "KOH-I-NOOR HARDTMUTH Trade, a.s.",
    "street": "Štefánikova 2532/9",
    "city": "Zlín",
    "zipcode": "760 01",
    "phone": "733 737 013",
    "inSunday": "",
    "inMonday": "07:30-17:00",
    "inTuesday": "07:30-17:00",
    "inWednesday": "07:30-17:00",
    "inThursday": "07:30-17:00",
    "inFriday": "07:30-17:00",
    "inSaturday": "09:00-12:00",
    "inSpecial": "",
    "lat": 49.2237969,
    "lng": 17.6668588
  },
  {
    "code": 76,
    "name": "KOH-I-NOOR HARDTMUTH Trade, a.s.",
    "street": "Masarykova třída 410/34",
    "city": "Teplice",
    "zipcode": "415 01",
    "phone": "731 422 465",
    "inSunday": "",
    "inMonday": "08:00-17:00",
    "inTuesday": "08:00-17:00",
    "inWednesday": "08:00-17:00",
    "inThursday": "08:00-17:00",
    "inFriday": "08:00-17:00",
    "inSaturday": "09:00-12:00",
    "inSpecial": "",
    "lat": 50.6427811,
    "lng": 13.829274499999997
  },
  {
    "code": 89,
    "name": "KOH-I-NOOR HARDTMUTH a.s.",
    "street": "F. A. Gerstnera 21/3",
    "city": "České Budějovice",
    "zipcode": "37001",
    "phone": "389 000 200",
    "inSunday": "",
    "inMonday": "",
    "inTuesday": "",
    "inWednesday": "",
    "inThursday": "",
    "inFriday": "",
    "inSaturday": "",
    "inSpecial": "",
    "lat": 48.96905750000001,
    "lng": 14.472254900000053
  },
  {
    "code": 52,
    "name": "KOH-I-NOOR HARDTMUTH Trade, a.s.",
    "street": "Rooseveltova 73/10",
    "city": "Plzeň",
    "zipcode": "301 00",
    "phone": "731 627 856",
    "inSunday": "",
    "inMonday": "08:00-17:00",
    "inTuesday": "08:00-17:00",
    "inWednesday": "08:00-17:00",
    "inThursday": "08:00-17:00",
    "inFriday": "08:00-17:00",
    "inSaturday": "09:00-12:00",
    "inSpecial": "",
    "lat": 49.7485425,
    "lng": 13.379159500000014
  },
  {
    "code": 50,
    "name": "KOH-I-NOOR HARDTMUTH Trade, a.s.",
    "street": "Studentská 519",
    "city": "Pardubice",
    "zipcode": "530 09",
    "phone": "731 422 437",
    "inSunday": "",
    "inMonday": "07:00-12:00, 12:30-15:30",
    "inTuesday": "07:00-12:00, 12:30-15:30",
    "inWednesday": "07:00-12:00, 12:30-15:30",
    "inThursday": "07:00-12:00, 12:30-15:30",
    "inFriday": "07:00-12:00, 12:30-15:30",
    "inSaturday": "",
    "inSpecial": "",
    "lat": 50.0493365,
    "lng": 15.76672480000002
  },
  {
    "code": 31,
    "name": "KOH-I-NOOR HARDTMUTH Trade, a.s.",
    "street": "Zámecké náměstí 2068/4",
    "city": "Krnov",
    "zipcode": "794 01",
    "phone": "731 627 869",
    "inSunday": "",
    "inMonday": "08:00-18:00",
    "inTuesday": "08:00-18:00",
    "inWednesday": "08:00-18:00",
    "inThursday": "08:00-18:00",
    "inFriday": "08:00-18:00",
    "inSaturday": "08:00-12:00",
    "inSpecial": "",
    "lat": 50.0896831,
    "lng": 17.701712300000054
  },
  {
    "code": 37,
    "name": "KOH-I-NOOR HARDTMUTH Trade, a.s.",
    "street": "tř. Václava Klementa 1459",
    "city": "Mladá Boleslav",
    "zipcode": "293 01",
    "phone": "731 422 429",
    "inSunday": "09:00-21:00",
    "inMonday": "09:00-21:00",
    "inTuesday": "09:00-21:00",
    "inWednesday": "09:00-21:00",
    "inThursday": "09:00-21:00",
    "inFriday": "09:00-21:00",
    "inSaturday": "09:00-21:00",
    "inSpecial": "",
    "lat": 50.4201847,
    "lng": 14.915525900000034
  },
  {
    "code": 8,
    "name": "KOH-I-NOOR HARDTMUTH Trade, a.s.",
    "street": "Široká 421/1",
    "city": "České Budějovice",
    "zipcode": "370 01",
    "phone": "731 627 868",
    "inSunday": "",
    "inMonday": "08:30-18:00",
    "inTuesday": "08:30-18:00",
    "inWednesday": "08:30-18:00",
    "inThursday": "08:30-18:00",
    "inFriday": "08:30-18:00",
    "inSaturday": "09:00-12:00",
    "inSpecial": "",
    "lat": 48.9729034,
    "lng": 14.475759899999957
  },
  {
    "code": 70,
    "name": "KOH-I-NOOR HARDTMUTH Trade, a.s.",
    "street": "Skálova 68",
    "city": "Slaný",
    "zipcode": "274 01",
    "phone": "739 329 685",
    "inSunday": "",
    "inMonday": "08:00-17:00",
    "inTuesday": "08:00-17:00",
    "inWednesday": "08:00-17:00",
    "inThursday": "08:00-17:00",
    "inFriday": "08:00-17:00",
    "inSaturday": "08:00-11:00",
    "inSpecial": "",
    "lat": 50.23046220000001,
    "lng": 14.086943900000051
  },
  {
    "code": 71,
    "name": "KOH-I-NOOR HARDTMUTH Trade, a.s.",
    "street": "ČSA 3/50",
    "city": "Šternberk",
    "zipcode": "785 01",
    "phone": "731 627 863",
    "inSunday": "",
    "inMonday": "08:00-17:30",
    "inTuesday": "08:00-17:30",
    "inWednesday": "08:00-17:30",
    "inThursday": "08:00-17:30",
    "inFriday": "08:00-17:30",
    "inSaturday": "08:00-11:00",
    "inSpecial": "",
    "lat": 49.7290582,
    "lng": 17.296980299999973
  },
  {
    "code": 73,
    "name": "KOH-I-NOOR HARDTMUTH TRADE",
    "street": "Starobranská 249/20",
    "city": "Šumperk",
    "zipcode": "787 01",
    "phone": "739 329 734",
    "inSunday": "",
    "inMonday": "07:30-17:00",
    "inTuesday": "07:30-17:00",
    "inWednesday": "07:30-17:00",
    "inThursday": "07:30-17:00",
    "inFriday": "07:30-17:00",
    "inSaturday": "08:30-11:30",
    "inSpecial": "",
    "lat": 49.9658441,
    "lng": 16.973123100000066
  },
  {
    "code": 10,
    "name": "KOH-I-NOOR HARDTMUTH Trade, a.s.",
    "street": "Riegrova 292",
    "city": "Česká Třebová",
    "zipcode": "560 02",
    "phone": "731 422 387",
    "inSunday": "",
    "inMonday": "07:00-17:00",
    "inTuesday": "07:00-17:00",
    "inWednesday": "07:00-17:00",
    "inThursday": "07:00-17:00",
    "inFriday": "07:00-17:00",
    "inSaturday": "08:00-11:00",
    "inSpecial": "",
    "lat": 49.9036991,
    "lng": 16.44417820000001
  },
  {
    "code": 3,
    "name": "KOH-I-NOOR HARDTMUTH Trade, a.s.",
    "street": "J. Palacha 2920/1",
    "city": "Břeclav",
    "zipcode": "690 02",
    "phone": "736 126 930",
    "inSunday": "",
    "inMonday": "07:30-17:00",
    "inTuesday": "07:30-17:00",
    "inWednesday": "07:30-17:00",
    "inThursday": "07:30-17:00",
    "inFriday": "07:30-17:00",
    "inSaturday": "08:00-11:30",
    "inSpecial": "",
    "lat": 48.7577682,
    "lng": 16.886758099999952
  },
  {
    "code": 13,
    "name": "KOH-I-NOOR HARDTMUTH Trade, a.s.",
    "street": "Dragounská 2529/6",
    "city": "Cheb",
    "zipcode": "350 02",
    "phone": "731 422 337",
    "inSunday": "09:00-20:00",
    "inMonday": "09:00-20:00",
    "inTuesday": "09:00-20:00",
    "inWednesday": "09:00-20:00",
    "inThursday": "09:00-20:00",
    "inFriday": "09:00-20:00",
    "inSaturday": "09:00-20:00",
    "inSpecial": "",
    "lat": 50.0715626,
    "lng": 12.367723699999942
  },
  {
    "code": 35,
    "name": "KOH-I-NOOR HARDTMUTH Trade, a.s.",
    "street": "Mařákova 278",
    "city": "Litomyšl",
    "zipcode": "570 01",
    "phone": "731 627 870",
    "inSunday": "",
    "inMonday": "07:30-17:00",
    "inTuesday": "07:30-17:00",
    "inWednesday": "07:30-17:00",
    "inThursday": "07:30-17:00",
    "inFriday": "07:30-17:00",
    "inSaturday": "08:00-11:00",
    "inSpecial": "",
    "lat": 49.8686168,
    "lng": 16.313770999999974
  },
  {
    "code": 78,
    "name": "KOH-I-NOOR HARDTMUTH Trade, a.s.",
    "street": "Skálova 68",
    "city": "Turnov",
    "zipcode": "511 01",
    "phone": "734 686 227",
    "inSunday": "",
    "inMonday": "07:30-17:00",
    "inTuesday": "07:30-17:00",
    "inWednesday": "07:30-17:00",
    "inThursday": "07:30-17:00",
    "inFriday": "07:30-17:00",
    "inSaturday": "09:00-11:30",
    "inSpecial": "",
    "lat": 50.5883244,
    "lng": 15.157863200000065
  },
  {
    "code": 49,
    "name": "KOH-I-NOOR HARDTMUTH Trade, a.s.",
    "street": "třída Míru 60",
    "city": "Pardubice",
    "zipcode": "530 02",
    "phone": "731 627 854",
    "inSunday": "",
    "inMonday": "08:00-18:00",
    "inTuesday": "08:00-18:00",
    "inWednesday": "08:00-18:00",
    "inThursday": "08:00-18:00",
    "inFriday": "08:00-18:00",
    "inSaturday": "09:00-12:00",
    "inSpecial": "",
    "lat": 50.0370591,
    "lng": 15.775066400000014
  },
  {
    "code": 56,
    "name": "KOH-I-NOOR HARDTMUTH Trade, a.s.",
    "street": "Václavské náměstí 812/59",
    "city": "Praha",
    "zipcode": "110 00",
    "phone": "736 513 799",
    "inSunday": "09:00-19:00",
    "inMonday": "08:00-19:00",
    "inTuesday": "08:00-19:00",
    "inWednesday": "08:00-19:00",
    "inThursday": "08:00-19:00",
    "inFriday": "08:00-19:00",
    "inSaturday": "09:00-19:00",
    "inSpecial": "",
    "lat": 50.0798785,
    "lng": 14.43015390000005
  },
  {
    "code": 75,
    "name": "KOH-I-NOOR HARDTMUTH Trade, a.s.",
    "street": "9. května 640/22",
    "city": "Tábor",
    "zipcode": "390 02",
    "phone": "731 422 433",
    "inSunday": "",
    "inMonday": "08:30-18:00",
    "inTuesday": "08:30-18:00",
    "inWednesday": "08:30-18:00",
    "inThursday": "08:30-18:00",
    "inFriday": "08:30-18:00",
    "inSaturday": "09:00-12:00",
    "inSpecial": "",
    "lat": 49.4127964,
    "lng": 14.670972900000038
  },
  {
    "code": 46,
    "name": "KOH-I-NOOR HARDTMUTH Trade, a.s.",
    "street": "Nerudova 701",
    "city": "Ostrov nad Ohří",
    "zipcode": "363 01",
    "phone": "730 521 922",
    "inSunday": "",
    "inMonday": "08:30-17:00",
    "inTuesday": "08:30-17:00",
    "inWednesday": "08:30-17:00",
    "inThursday": "08:30-17:00",
    "inFriday": "08:30-17:00",
    "inSaturday": "09:00-12:00",
    "inSpecial": "",
    "lat": 50.3088551,
    "lng": 12.948293799999988
  },
  {
    "code": 86,
    "name": "KOH-I-NOOR HARDTMUTH Trade, a.s.",
    "street": "Nádražní 66/1",
    "city": "Žďár nad Sázavou",
    "zipcode": "591 01",
    "phone": "731 627 837",
    "inSunday": "",
    "inMonday": "07:30-17:00",
    "inTuesday": "07:30-17:00",
    "inWednesday": "07:30-17:00",
    "inThursday": "07:30-17:00",
    "inFriday": "07:30-17:00",
    "inSaturday": "08:30-12:00",
    "inSpecial": "",
    "lat": 49.5617993,
    "lng": 15.93950540000003
  },
  {
    "code": 18,
    "name": "KOH-I-NOOR HARDTMUTH Trade, a.s.",
    "street": "Dolní 99",
    "city": "Havlíčkův Brod",
    "zipcode": "580 01",
    "phone": "734 799 552",
    "inSunday": "",
    "inMonday": "07:30-17:00",
    "inTuesday": "07:30-17:00",
    "inWednesday": "07:30-17:00",
    "inThursday": "07:30-17:00",
    "inFriday": "07:30-17:00",
    "inSaturday": "09:00-11:30",
    "inSpecial": "",
    "lat": 49.6057207,
    "lng": 15.579627699999946
  },
  {
    "code": 29,
    "name": "KOH-I-NOOR HARDTMUTH Trade, a.s.",
    "street": "Karlovo náměstí 90",
    "city": "Kolín",
    "zipcode": "280 02",
    "phone": "731 422 402",
    "inSunday": "",
    "inMonday": "08:30-17:00",
    "inTuesday": "08:30-17:00",
    "inWednesday": "08:30-17:00",
    "inThursday": "08:30-17:00",
    "inFriday": "08:30-17:00",
    "inSaturday": "08:30-11:30",
    "inSpecial": "",
    "lat": 50.028322,
    "lng": 15.200370300000031
  },
  {
    "code": 4,
    "name": "KOH-I-NOOR HARDTMUTH Trade, a.s.",
    "street": "Kobližná 27/5",
    "city": "Brno",
    "zipcode": "602 00",
    "phone": "731 627 865",
    "inSunday": "",
    "inMonday": "08:00-18:00",
    "inTuesday": "08:00-18:00",
    "inWednesday": "08:00-18:00",
    "inThursday": "08:00-18:00",
    "inFriday": "08:00-18:00",
    "inSaturday": "09:00-12:30",
    "inSpecial": "",
    "lat": 49.1953896,
    "lng": 16.610024000000067
  },
  {
    "code": 38,
    "name": "KOH-I-NOOR HARDTMUTH Trade, a.s.",
    "street": "Cihlářova 169/8",
    "city": "Moravská Třebová",
    "zipcode": "571 01",
    "phone": "731 422 349",
    "inSunday": "",
    "inMonday": "07:30-17:00",
    "inTuesday": "07:30-17:00",
    "inWednesday": "07:30-17:00",
    "inThursday": "07:30-17:00",
    "inFriday": "07:30-17:00",
    "inSaturday": "08:00-11:30",
    "inSpecial": "",
    "lat": 49.757668,
    "lng": 16.66174269999999
  },
  {
    "code": 5,
    "name": "KOH-I-NOOR HARDTMUTH Trade, a.s.",
    "street": "Masarykova 427/31",
    "city": "Brno",
    "zipcode": "602 00",
    "phone": "731 422 395",
    "inSunday": "",
    "inMonday": "08:00-18:00",
    "inTuesday": "08:00-18:00",
    "inWednesday": "08:00-18:00",
    "inThursday": "08:00-18:00",
    "inFriday": "08:00-18:00",
    "inSaturday": "08:30-12:00",
    "inSpecial": "",
    "lat": 49.1919289,
    "lng": 16.610677699999997
  },
  {
    "code": 85,
    "name": "KOH-I-NOOR HARDTMUTH Trade, a.s.",
    "street": "náměstí Svobody 162",
    "city": "Žatec",
    "zipcode": "438 01",
    "phone": "731 627 861",
    "inSunday": "",
    "inMonday": "08:00-17:00",
    "inTuesday": "08:00-17:00",
    "inWednesday": "08:00-17:00",
    "inThursday": "08:00-17:00",
    "inFriday": "08:00-17:00",
    "inSaturday": "08:00-11:30",
    "inSpecial": "",
    "lat": 50.3287452,
    "lng": 13.545406800000023
  },
  {
    "code": 44,
    "name": "KOH-I-NOOR HARDTMUTH Trade, a.s.",
    "street": "Masarykova třída 752",
    "city": "Orlová",
    "zipcode": "735 14",
    "phone": "731 422 458",
    "inSunday": "",
    "inMonday": "07:30-18:00",
    "inTuesday": "07:30-18:00",
    "inWednesday": "07:30-18:00",
    "inThursday": "07:30-18:00",
    "inFriday": "07:30-18:00",
    "inSaturday": "08:00-12:00",
    "inSpecial": "",
    "lat": 49.8696204,
    "lng": 18.424762399999963
  },
  {
    "code": 34,
    "name": "KOH-I-NOOR HARDTMUTH Trade, a.s.",
    "street": "Dlouhá 180/19",
    "city": "Litoměřice",
    "zipcode": "412 01",
    "phone": "730 529 672",
    "inSunday": "",
    "inMonday": "07:30-17:30",
    "inTuesday": "07:30-17:30",
    "inWednesday": "07:30-17:30",
    "inThursday": "07:30-17:30",
    "inFriday": "07:30-17:30",
    "inSaturday": "08:00-11:00",
    "inSpecial": "",
    "lat": 50.5339043,
    "lng": 14.134328699999969
  },
  {
    "code": 21,
    "name": "KOH-I-NOOR HARDTMUTH Trade, a.s.",
    "street": "Jiráskova 2188",
    "city": "Hranice",
    "zipcode": "753 01",
    "phone": "731 627 841",
    "inSunday": "",
    "inMonday": "07:30-17:00",
    "inTuesday": "07:30-17:00",
    "inWednesday": "07:30-17:00",
    "inThursday": "07:30-17:00",
    "inFriday": "07:30-17:00",
    "inSaturday": "08:00-11:00",
    "inSpecial": "",
    "lat": 49.5506055,
    "lng": 17.735235399999965
  },
  {
    "code": 51,
    "name": "KOH-I-NOOR HARDTMUTH Trade, a.s.",
    "street": "Karlovo náměstí 167",
    "city": "Pelhřimov",
    "zipcode": "393 01",
    "phone": "731 627 852",
    "inSunday": "",
    "inMonday": "08:00-17:00",
    "inTuesday": "08:00-17:00",
    "inWednesday": "08:00-17:00",
    "inThursday": "08:00-17:00",
    "inFriday": "08:00-17:00",
    "inSaturday": "08:00-11:00",
    "inSpecial": "",
    "lat": 49.4326324,
    "lng": 15.225672400000008
  },
  {
    "code": 68,
    "name": "KOH-I-NOOR HARDTMUTH Trade, a.s.",
    "street": "Dukelská brána 25/7",
    "city": "Prostějov",
    "zipcode": "796 01",
    "phone": "739 329 693",
    "inSunday": "09:00-19:00",
    "inMonday": "09:00-19:00",
    "inTuesday": "09:00-19:00",
    "inWednesday": "09:00-19:00",
    "inThursday": "09:00-19:00",
    "inFriday": "09:00-19:00",
    "inSaturday": "09:00-19:00",
    "inSpecial": "",
    "lat": 49.4722804,
    "lng": 17.112803900000017
  },
  {
    "code": 45,
    "name": "KOH-I-NOOR HARDTMUTH Trade, a.s.",
    "street": "28. října 1081/202",
    "city": "Ostrava",
    "zipcode": "709 00",
    "phone": "731 422 393",
    "inSunday": "",
    "inMonday": "08:00-17:00",
    "inTuesday": "08:00-17:00",
    "inWednesday": "08:00-17:00",
    "inThursday": "08:00-17:00",
    "inFriday": "08:00-17:00",
    "inSaturday": "",
    "inSpecial": "",
    "lat": 49.8280637,
    "lng": 18.256285299999945
  },
  {
    "code": 36,
    "name": "KOH-I-NOOR HARDTMUTH Trade, a.s.",
    "street": "Št. Dvořáka 617/5",
    "city": "Milevsko",
    "zipcode": "399 01",
    "phone": "382 521 499",
    "inSunday": "",
    "inMonday": "08:00-17:00",
    "inTuesday": "08:00-17:00",
    "inWednesday": "08:00-17:00",
    "inThursday": "08:00-17:00",
    "inFriday": "08:00-17:00",
    "inSaturday": "08:00-11:00",
    "inSpecial": "",
    "lat": 49.44694339999999,
    "lng": 14.36565470000005
  },
  {
    "code": 84,
    "name": "KOH-I-NOOR HARDTMUTH Trade, a.s.",
    "street": "Žižkova 240/12",
    "city": "Zábřeh",
    "zipcode": "789 01",
    "phone": "739 329 733",
    "inSunday": "",
    "inMonday": "07:30-17:00",
    "inTuesday": "07:30-17:00",
    "inWednesday": "07:30-17:00",
    "inThursday": "07:30-17:00",
    "inFriday": "07:30-17:00",
    "inSaturday": "08:00-12:00",
    "inSpecial": "",
    "lat": 49.8827587,
    "lng": 16.87533810000002
  },
  {
    "code": 32,
    "name": "KOH-I-NOOR HARDTMUTH Trade, a.s.",
    "street": "Vodní 88/24",
    "city": "Kroměříž",
    "zipcode": "767 01",
    "phone": "731 627 855",
    "inSunday": "",
    "inMonday": "07:30-17:00",
    "inTuesday": "07:30-17:00",
    "inWednesday": "07:30-17:00",
    "inThursday": "07:30-17:00",
    "inFriday": "07:30-17:00",
    "inSaturday": "08:30-11:30",
    "inSpecial": "",
    "lat": 49.2986246,
    "lng": 17.396389999999997
  },
  {
    "code": 80,
    "name": "KOH-I-NOOR HARDTMUTH Trade, a.s.",
    "street": "Špitálské náměstí 3517/1a",
    "city": "Ústí nad Labem",
    "zipcode": "400 01",
    "phone": "739 329 698",
    "inSunday": "",
    "inMonday": "07:30-18:00",
    "inTuesday": "07:30-18:00",
    "inWednesday": "07:30-18:00",
    "inThursday": "07:30-18:00",
    "inFriday": "07:30-18:00",
    "inSaturday": "09:00-12:00",
    "inSpecial": "",
    "lat": 50.6629754,
    "lng": 14.033170700000028
  },
  {
    "code": 79,
    "name": "KOH-I-NOOR HARDTMUTH Trade, a.s.",
    "street": "Protzkarova 1220",
    "city": "Uherské Hradiště",
    "zipcode": "686 01",
    "phone": "731 627 828",
    "inSunday": "",
    "inMonday": "07:30-17:00",
    "inTuesday": "07:30-17:00",
    "inWednesday": "07:30-17:00",
    "inThursday": "07:30-17:00",
    "inFriday": "07:30-17:00",
    "inSaturday": "08:00-11:00",
    "inSpecial": "",
    "lat": 49.0683546,
    "lng": 17.459356699999944
  },
  {
    "code": 16,
    "name": "KOH-I-NOOR HARDTMUTH Trade, a.s.",
    "street": "Kostelní 1",
    "city": "Domažlice",
    "zipcode": "344 01",
    "phone": "731 422 315",
    "inSunday": "",
    "inMonday": "07:30-17:00",
    "inTuesday": "07:30-17:00",
    "inWednesday": "07:30-17:00",
    "inThursday": "07:30-17:00",
    "inFriday": "07:30-17:00",
    "inSaturday": "09:00-12:00",
    "inSpecial": "",
    "lat": 49.4415044,
    "lng": 12.92916630000002
  },
  {
    "code": 74,
    "name": "KOH-I-NOOR HARDTMUTH Trade, a.s.",
    "street": "náměstí Míru 52/61",
    "city": "Svitavy",
    "zipcode": "568 02",
    "phone": "731 422 334",
    "inSunday": "",
    "inMonday": "08:00-17:00",
    "inTuesday": "08:00-17:00",
    "inWednesday": "08:00-17:00",
    "inThursday": "08:00-17:00",
    "inFriday": "08:00-17:00",
    "inSaturday": "08:30-11:30",
    "inSpecial": "",
    "lat": 49.7558368,
    "lng": 16.469072299999993
  },
  {
    "code": 82,
    "name": "KOH-I-NOOR HARDTMUTH Trade, a.s.",
    "street": "Klostermannova 367/26",
    "city": "Vimperk",
    "zipcode": "385 01",
    "phone": "731 627 857",
    "inSunday": "",
    "inMonday": "07:30-17:00",
    "inTuesday": "07:30-17:00",
    "inWednesday": "07:30-17:00",
    "inThursday": "07:30-17:00",
    "inFriday": "07:30-17:00",
    "inSaturday": "08:00-11:00",
    "inSpecial": "",
    "lat": 49.0592663,
    "lng": 13.780456800000024
  },
  {
    "code": 66,
    "name": "KOH-I-NOOR HARDTMUTH Trade, a.s.",
    "street": "Čechova 929/26",
    "city": "Přerov",
    "zipcode": "750 02",
    "phone": "736 513 800",
    "inSunday": "09:00-20:00",
    "inMonday": "09:00-20:00",
    "inTuesday": "09:00-20:00",
    "inWednesday": "09:00-20:00",
    "inThursday": "09:00-20:00",
    "inFriday": "09:00-20:00",
    "inSaturday": "09:00-20:00",
    "inSpecial": "",
    "lat": 49.4503703,
    "lng": 17.45545500000003
  },
  {
    "code": 55,
    "name": "KOH-I-NOOR HARDTMUTH Trade, a.s.",
    "street": "Křišťanova 36",
    "city": "Prachatice",
    "zipcode": "383 01",
    "phone": "731 627 851",
    "inSunday": "",
    "inMonday": "08:00-17:00",
    "inTuesday": "08:00-17:00",
    "inWednesday": "08:00-17:00",
    "inThursday": "08:00-17:00",
    "inFriday": "08:00-17:00",
    "inSaturday": "09:00-11:00",
    "inSpecial": "",
    "lat": 49.0129995,
    "lng": 13.998626699999932
  },
  {
    "code": 9,
    "name": "KOH-I-NOOR HARDTMUTH Trade, a.s.",
    "street": "Jindřicha z Lipé 94/17",
    "city": "Česká Lípa",
    "zipcode": "470 01",
    "phone": "739 329 696",
    "inSunday": "",
    "inMonday": "08:00-17:00",
    "inTuesday": "08:00-17:00",
    "inWednesday": "08:00-17:00",
    "inThursday": "08:00-17:00",
    "inFriday": "08:00-17:00",
    "inSaturday": "09:00-12:00",
    "inSpecial": "",
    "lat": 50.6851091,
    "lng": 14.537497099999996
  },
  {
    "code": 40,
    "name": "KOH-I-NOOR HARDTMUTH Trade, a.s.",
    "street": "28. října 1382",
    "city": "Neratovice",
    "zipcode": "277 11",
    "phone": "731 422 378",
    "inSunday": "",
    "inMonday": "08:00-17:30",
    "inTuesday": "08:00-17:30",
    "inWednesday": "08:00-17:30",
    "inThursday": "08:00-17:30",
    "inFriday": "08:00-17:30",
    "inSaturday": "08:00-11:00",
    "inSpecial": "",
    "lat": 50.2583011,
    "lng": 14.515753000000018
  },
  {
    "code": 28,
    "name": "KOH-I-NOOR HARDTMUTH Trade, a.s.",
    "street": "T. G. Masaryka 728",
    "city": "Kladno",
    "zipcode": "272 01",
    "phone": "733 737 012",
    "inSunday": "",
    "inMonday": "08:00-17:30",
    "inTuesday": "08:00-17:30",
    "inWednesday": "08:00-17:30",
    "inThursday": "08:00-17:30",
    "inFriday": "08:00-17:30",
    "inSaturday": "08:30-11:30",
    "inSpecial": "",
    "lat": 50.1455823,
    "lng": 14.096975100000009
  },
  {
    "code": 6,
    "name": "KOH-I-NOOR HARDTMUTH Trade, a.s.",
    "street": "Náměstí 28. dubna 1069/2",
    "city": "Brno",
    "zipcode": "635 00",
    "phone": "736 513 797",
    "inSunday": "",
    "inMonday": "07:30-18:00",
    "inTuesday": "07:30-18:00",
    "inWednesday": "07:30-18:00",
    "inThursday": "07:30-18:00",
    "inFriday": "07:30-18:00",
    "inSaturday": "08:00-12:00",
    "inSpecial": "",
    "lat": 49.2256355,
    "lng": 16.530274599999984
  },
  {
    "code": 57,
    "name": "KOH-I-NOOR HARDTMUTH Trade, a.s.",
    "street": "U Trojského zámku 120/3",
    "city": "Praha",
    "zipcode": "171 00",
    "phone": "734 356 449",
    "inSunday": "09:00-18:00",
    "inMonday": "09:00-18:00",
    "inTuesday": "09:00-18:00",
    "inWednesday": "09:00-18:00",
    "inThursday": "09:00-18:00",
    "inFriday": "09:00-18:00",
    "inSaturday": "09:00-18:00",
    "inSpecial": "",
    "lat": 50.1166869,
    "lng": 14.411044700000048
  },
  {
    "code": 2,
    "name": "KOH-I-NOOR HARDTMUTH Trade, a.s.",
    "street": "tř. Dr. E. Beneše 556",
    "city": "Bohumín",
    "zipcode": "735 81",
    "phone": "731 422 457",
    "inSunday": "",
    "inMonday": "08:00-17:00",
    "inTuesday": "08:00-17:00",
    "inWednesday": "08:00-17:00",
    "inThursday": "08:00-17:00",
    "inFriday": "08:00-17:00",
    "inSaturday": "08:00-12:00",
    "inSpecial": "",
    "lat": 49.90122119999999,
    "lng": 18.35830480000004
  },
  {
    "code": 27,
    "name": "KOH-I-NOOR HARDTMUTH Trade, a.s.",
    "street": "Mírové náměstí 45",
    "city": "Kadaň",
    "zipcode": "432 01",
    "phone": "731 422 438",
    "inSunday": "",
    "inMonday": "08:00-17:00",
    "inTuesday": "08:00-17:00",
    "inWednesday": "08:00-17:00",
    "inThursday": "08:00-17:00",
    "inFriday": "08:00-17:00",
    "inSaturday": "09:00-11:30",
    "inSpecial": "",
    "lat": 50.37736899999999,
    "lng": 13.270380199999977
  },
  {
    "code": 14,
    "name": "KOH-I-NOOR HARDTMUTH Trade, a.s.",
    "street": "Havlíčkova 195",
    "city": "Chrudim",
    "zipcode": "537 01",
    "phone": "731 627 827",
    "inSunday": "",
    "inMonday": "08:00-17:00",
    "inTuesday": "08:00-17:00",
    "inWednesday": "08:00-17:00",
    "inThursday": "08:00-17:00",
    "inFriday": "08:00-17:00",
    "inSaturday": "08:00-11:00",
    "inSpecial": "",
    "lat": 49.9485154,
    "lng": 15.79442610000001
  },
  {
    "code": 43,
    "name": "KOH-I-NOOR HARDTMUTH Trade, a.s.",
    "street": "Ostrožná 208/4",
    "city": "Opava",
    "zipcode": "746 01",
    "phone": "731 627 836",
    "inSunday": "",
    "inMonday": "08:00-18:00",
    "inTuesday": "08:00-18:00",
    "inWednesday": "08:00-18:00",
    "inThursday": "08:00-18:00",
    "inFriday": "08:00-18:00",
    "inSaturday": "08:00-11:30",
    "inSpecial": "",
    "lat": 49.93800969999999,
    "lng": 17.902809100000013
  },
  {
    "code": 64,
    "name": "KOH-I-NOOR HARDTMUTH Trade, a.s.",
    "street": "Vodičkova 710/31",
    "city": "Praha",
    "zipcode": "110 00",
    "phone": "734 799 551",
    "inSunday": "10:00-18:00",
    "inMonday": "09:00-19:00",
    "inTuesday": "09:00-19:00",
    "inWednesday": "09:00-19:00",
    "inThursday": "09:00-19:00",
    "inFriday": "09:00-19:00",
    "inSaturday": "10:00-18:00",
    "inSpecial": "",
    "lat": 50.0813565,
    "lng": 14.424245700000029
  },
  {
    "code": 83,
    "name": "KOH-I-NOOR HARDTMUTH Trade, a.s.",
    "street": "nám. Svobody 1321",
    "city": "Vsetín",
    "zipcode": "755 01",
    "phone": "731 627 860",
    "inSunday": "",
    "inMonday": "07:30-17:00",
    "inTuesday": "07:30-17:00",
    "inWednesday": "07:30-17:00",
    "inThursday": "07:30-17:00",
    "inFriday": "07:30-17:00",
    "inSaturday": "08:00-11:00",
    "inSpecial": "",
    "lat": 49.3369148,
    "lng": 17.995150599999988
  },
  {
    "code": 11,
    "name": "KOH-I-NOOR HARDTMUTH Trade, a.s.",
    "street": "Kostelní 169",
    "city": "Český Krumlov",
    "zipcode": "381 01",
    "phone": "731 627 867",
    "inSunday": "10:00-15:00",
    "inMonday": "09:00-19:00",
    "inTuesday": "09:00-19:00",
    "inWednesday": "09:00-19:00",
    "inThursday": "09:00-19:00",
    "inFriday": "09:00-19:00",
    "inSaturday": "10:00-15:00",
    "inSpecial": "",
    "lat": 48.8099626,
    "lng": 14.314782700000023
  },
  {
    "code": 15,
    "name": "KOH-I-NOOR HARDTMUTH Trade, a.s.",
    "street": "Masarykovo nám. 193/20",
    "city": "Děčín",
    "zipcode": "405 02",
    "phone": "731 627 853",
    "inSunday": "",
    "inMonday": "07:30-17:30",
    "inTuesday": "07:30-17:30",
    "inWednesday": "07:30-17:30",
    "inThursday": "07:30-17:30",
    "inFriday": "07:30-17:30",
    "inSaturday": "09:00-12:00",
    "inSpecial": "",
    "lat": 50.78094309999999,
    "lng": 14.212774099999933
  },
  {
    "code": 59,
    "name": "KOH-I-NOOR HARDTMUTH Trade, a.s.",
    "street": "Národní obrany 963/29",
    "city": "Praha",
    "zipcode": "160 00",
    "phone": "733 737 011",
    "inSunday": "",
    "inMonday": "07:30-19:00",
    "inTuesday": "07:30-19:00",
    "inWednesday": "07:30-19:00",
    "inThursday": "07:30-19:00",
    "inFriday": "07:30-19:00",
    "inSaturday": "09:00-13:00",
    "inSpecial": "",
    "lat": 50.1004961,
    "lng": 14.398066400000062
  },
  {
    "code": 24,
    "name": "KOH-I-NOOR HARDTMUTH Trade, a.s.",
    "street": "Valdštejnovo náměstí 77",
    "city": "Jičín",
    "zipcode": "506 01",
    "phone": "731 422 377",
    "inSunday": "",
    "inMonday": "07:30-17:00",
    "inTuesday": "07:30-17:00",
    "inWednesday": "07:30-17:00",
    "inThursday": "07:30-17:00",
    "inFriday": "07:30-17:00",
    "inSaturday": "08:30-11:30",
    "inSpecial": "",
    "lat": 50.4374028,
    "lng": 15.352562300000045
  },
  {
    "code": 62,
    "name": "KOH-I-NOOR HARDTMUTH Trade, a.s.",
    "street": "Na Příkopě 860/24",
    "city": "Praha",
    "zipcode": "110 00",
    "phone": "739 329 019",
    "inSunday": "10:00-20:00",
    "inMonday": "10:00-20:00",
    "inTuesday": "10:00-20:00",
    "inWednesday": "10:00-20:00",
    "inThursday": "10:00-20:00",
    "inFriday": "10:00-20:00",
    "inSaturday": "10:00-20:00",
    "inSpecial": "",
    "lat": 50.08639030000001,
    "lng": 14.428157800000008
  },
  {
    "code": 48,
    "name": "KOH-I-NOOR HARDTMUTH Trade, a.s.",
    "street": "nám. Svobody 168",
    "city": "Pacov",
    "zipcode": "395 01",
    "phone": "565 442 188",
    "inSunday": "",
    "inMonday": "07:30-17:00",
    "inTuesday": "07:30-17:00",
    "inWednesday": "07:30-17:00",
    "inThursday": "07:30-17:00",
    "inFriday": "07:30-17:00",
    "inSaturday": "08:00-11:00",
    "inSpecial": "",
    "lat": 49.4718308,
    "lng": 15.003068399999961
  },
  {
    "code": 54,
    "name": "KOH-I-NOOR HARDTMUTH Trade, a.s.",
    "street": "Masarykova 5",
    "city": "Polička",
    "zipcode": "572 01",
    "phone": "731 627 881",
    "inSunday": "",
    "inMonday": "08:00-17:00",
    "inTuesday": "08:00-17:00",
    "inWednesday": "08:00-17:00",
    "inThursday": "08:00-17:00",
    "inFriday": "08:00-17:00",
    "inSaturday": "08:30-11:30",
    "inSpecial": "",
    "lat": 49.7146565,
    "lng": 16.267504700000018
  },
  {
    "code": 60,
    "name": "KOH-I-NOOR HARDTMUTH Trade, a.s.",
    "street": "Nerudova 250/13",
    "city": "Praha",
    "zipcode": "118 00",
    "phone": "731 534 401",
    "inSunday": "10:00-19:00",
    "inMonday": "10:00-19:00",
    "inTuesday": "10:00-19:00",
    "inWednesday": "10:00-19:00",
    "inThursday": "10:00-19:00",
    "inFriday": "10:00-19:00",
    "inSaturday": "10:00-19:00",
    "inSpecial": "",
    "lat": 50.0884389,
    "lng": 14.400156899999956
  },
  {
    "code": 30,
    "name": "KOH-I-NOOR HARDTMUTH Trade, a.s.",
    "street": "Štefánikova 1159/13",
    "city": "Kopřivnice",
    "zipcode": "742 21",
    "phone": "731 422 446",
    "inSunday": "",
    "inMonday": "08:00-18:00",
    "inTuesday": "08:00-18:00",
    "inWednesday": "08:00-18:00",
    "inThursday": "08:00-18:00",
    "inFriday": "08:00-18:00",
    "inSaturday": "08:00-12:00",
    "inSpecial": "",
    "lat": 49.59840740000001,
    "lng": 18.145110199999976
  },
  {
    "code": 33,
    "name": "KOH-I-NOOR HARDTMUTH Trade, a.s.",
    "street": "Pražská 20/33",
    "city": "Liberec",
    "zipcode": "460 07",
    "phone": "731 593 322",
    "inSunday": "",
    "inMonday": "08:30-18:00",
    "inTuesday": "08:30-18:00",
    "inWednesday": "08:30-18:00",
    "inThursday": "08:30-18:00",
    "inFriday": "08:30-18:00",
    "inSaturday": "09:00-12:00",
    "inSpecial": "",
    "lat": 50.7672199,
    "lng": 15.056770000000029
  },
  {
    "code": 1,
    "name": "KOH-I-NOOR HARDTMUTH Trade, a.s.",
    "street": "Seifertova 5/9",
    "city": "Bílina",
    "zipcode": "418 01",
    "phone": "731 627 859",
    "inSunday": "",
    "inMonday": "08:30-17:00",
    "inTuesday": "08:30-17:00",
    "inWednesday": "08:30-17:00",
    "inThursday": "08:30-17:00",
    "inFriday": "08:30-17:00",
    "inSaturday": "08:30-11:00",
    "inSpecial": "",
    "lat": 50.5466273,
    "lng": 13.774241500000016
  },
  {
    "code": 25,
    "name": "KOH-I-NOOR HARDTMUTH Trade, a.s.",
    "street": "Benešova 1257/11",
    "city": "Jihlava",
    "zipcode": "586 01",
    "phone": "739 329 702",
    "inSunday": "",
    "inMonday": "07:30-17:30",
    "inTuesday": "07:30-17:30",
    "inWednesday": "07:30-17:30",
    "inThursday": "07:30-17:30",
    "inFriday": "07:30-17:30",
    "inSaturday": "09:00-11:00",
    "inSpecial": "",
    "lat":49.3959048,
    "lng":15.587675699999977
  },
  {
    "code": 58,
    "name": "KOH-I-NOOR HARDTMUTH Trade, a.s.",
    "street": "Na Poříčí 1068/23",
    "city": "Praha",
    "zipcode": "110 00",
    "phone": "739 329 697",
    "inSunday": "10:00-18:00",
    "inMonday": "09:00-20:00",
    "inTuesday": "09:00-20:00",
    "inWednesday": "09:00-20:00",
    "inThursday": "09:00-20:00",
    "inFriday": "09:00-20:00",
    "inSaturday": "09:00-18:00",
    "inSpecial": "",
    "lat":50.0903159,
    "lng":14.433912100000043
  },
  {
    "code": 23,
    "name": "KOH-I-NOOR HARDTMUTH Trade, a.s.",
    "street": "V Oblouku 816/5",
    "city": "Jeseník",
    "zipcode": "790 01",
    "phone": "739 329 719",
    "inSunday": "",
    "inMonday": "07:30-17:00",
    "inTuesday": "07:30-17:00",
    "inWednesday": "07:30-17:00",
    "inThursday": "07:30-17:00",
    "inFriday": "07:30-17:00",
    "inSaturday": "08:30-12:00",
    "inSpecial": "",
    "lat": 50.2283467,
    "lng": 17.202935499999967
  }
]